{"type":"FeatureCollection","features":[{"type":"Feature","properties":{"lat":-7.305729,"long":112.734003,"name":"SMK NEGERI 1 SURABAYA"},"geometry":{"type":"Point","coordinates":[112.734003,-7.305729]}},{"type":"Feature","properties":{"lat":-7.258708,"long":112.724808,"name":"SMK NEGERI 2 SURABAYA"},"geometry":{"type":"Point","coordinates":[112.724808,-7.258708]}},{"type":"Feature","properties":{"lat":-7.343739,"long":112.730116,"name":"SMK NEGERI 3 SURABAYA"},"geometry":{"type":"Point","coordinates":[112.730116,-7.343739]}},{"type":"Feature","properties":{"lat":-7.256549,"long":112.730197,"name":"SMK NEGERI 4 SURABAYA"},"geometry":{"type":"Point","coordinates":[112.730197,-7.256549]}},{"type":"Feature","properties":{"lat":-7.265227,"long":112.769064,"name":"SMK NEGERI 5 SURABAYA"},"geometry":{"type":"Point","coordinates":[112.769064,-7.265227]}},{"type":"Feature","properties":{"lat":-7.316578,"long":112.74123,"name":"SMK NEGERI 6 SURABAYA"},"geometry":{"type":"Point","coordinates":[112.74123,-7.316578]}},{"type":"Feature","properties":{"lat":-7.250966,"long":112.731291,"name":"SMK NEGERI 7 SURABAYA"},"geometry":{"type":"Point","coordinates":[112.731291,-7.250966]}},{"type":"Feature","properties":{"lat":-7.253406,"long":112.746142,"name":"SMK NEGERI 8 SURABAYA"},"geometry":{"type":"Point","coordinates":[112.746142,-7.253406]}},{"type":"Feature","properties":{"lat":-7.29373,"long":112.800108,"name":"SMK NEGERI 10 SURABAYA"},"geometry":{"type":"Point","coordinates":[112.800108,-7.29373]}},{"type":"Feature","properties":{"lat":-7.340805,"long":112.740748,"name":"SMK NEGERI 12 SURABAYA"},"geometry":{"type":"Point","coordinates":[112.740748,-7.340805]}},{"type":"Feature","properties":{"lat":-8.003494,"long":112.626805,"name":"SMK NEGERI 1 MALANG"},"geometry":{"type":"Point","coordinates":[112.626805,-8.003494]}},{"type":"Feature","properties":{"lat":-7.956401,"long":112.615664,"name":"SMK NEGERI 2 MALANG"},"geometry":{"type":"Point","coordinates":[112.615664,-7.956401]}},{"type":"Feature","properties":{"lat":-7.966693,"long":112.619186,"name":"SMK NEGERI 3 MALANG"},"geometry":{"type":"Point","coordinates":[112.619186,-7.966693]}},{"type":"Feature","properties":{"lat":-8.0258306,"long":112.6199894,"name":"SMK NEGERI 7 MALANG"},"geometry":{"type":"Point","coordinates":[112.6199894,-8.0258306]}},{"type":"Feature","properties":{"lat":-7.9362323,"long":112.6596267,"name":"SMK NEGERI 8 MALANG"},"geometry":{"type":"Point","coordinates":[112.6596267,-7.9362323]}},{"type":"Feature","properties":{"lat":-7.9901386,"long":112.6249711,"name":"SMK NEGERI 4 MALANG"},"geometry":{"type":"Point","coordinates":[112.6249711,-7.9901386]}},{"type":"Feature","properties":{"lat":-7.9293817,"long":112.6335993,"name":"SMK NEGERI 5 MALANG"},"geometry":{"type":"Point","coordinates":[112.6335993,-7.9293817]}},{"type":"Feature","properties":{"lat":-7.9751241,"long":112.6694978,"name":"SMK NEGERI 6 MALANG"},"geometry":{"type":"Point","coordinates":[112.6694978,-7.9751241]}},{"type":"Feature","properties":{"lat":-7.9870288,"long":112.6820333,"name":"SMK NEGERI 9 MALANG"},"geometry":{"type":"Point","coordinates":[112.6820333,-7.9870288]}},{"type":"Feature","properties":{"lat":-8.0342431,"long":112.6446554,"name":"SMK NEGERI 10 MALANG"},"geometry":{"type":"Point","coordinates":[112.6446554,-8.0342431]}},{"type":"Feature","properties":{"lat":-8.0065458,"long":112.6082016,"name":"SMK NEGERI 11 MALANG"},"geometry":{"type":"Point","coordinates":[112.6082016,-8.0065458]}},{"type":"Feature","properties":{"lat":-7.9250778,"long":112.656808,"name":"SMK NEGERI 12 MALANG"},"geometry":{"type":"Point","coordinates":[112.656808,-7.9250778]}},{"type":"Feature","properties":{"lat":-7.942413,"long":112.5770149,"name":"SMK NEGERI 13 MALANG"},"geometry":{"type":"Point","coordinates":[112.5770149,-7.942413]}},{"type":"Feature","properties":{"lat":-7.6251881,"long":111.5312184,"name":"SMK NEGERI 1 MADIUN"},"geometry":{"type":"Point","coordinates":[111.5312184,-7.6251881]}},{"type":"Feature","properties":{"lat":-7.625587,"long":111.4802798,"name":"SMK NEGERI 2 MADIUN"},"geometry":{"type":"Point","coordinates":[111.4802798,-7.625587]}},{"type":"Feature","properties":{"lat":-7.6515217,"long":111.5271678,"name":"SMK NEGERI 3 MADIUN"},"geometry":{"type":"Point","coordinates":[111.5271678,-7.6515217]}},{"type":"Feature","properties":{"lat":-7.6322528,"long":111.5277063,"name":"SMK NEGERI 4 MADIUN"},"geometry":{"type":"Point","coordinates":[111.5277063,-7.6322528]}},{"type":"Feature","properties":{"lat":-7.6484732,"long":111.5147444,"name":"SMK NEGERI 5 MADIUN"},"geometry":{"type":"Point","coordinates":[111.5147444,-7.6484732]}},{"type":"Feature","properties":{"lat":-7.811755,"long":111.9952501,"name":"SMK NEGERI 1 KEDIRI"},"geometry":{"type":"Point","coordinates":[111.9952501,-7.811755]}},{"type":"Feature","properties":{"lat":-7.8117443,"long":111.9952501,"name":"SMK NEGERI 2 KEDIRI"},"geometry":{"type":"Point","coordinates":[111.9952501,-7.8117443]}},{"type":"Feature","properties":{"lat":-7.8122568,"long":112.0157409,"name":"SMK NEGERI 3 KEDIRI"},"geometry":{"type":"Point","coordinates":[112.0157409,-7.8122568]}},{"type":"Feature","properties":{"lat":-7.4691081,"long":112.4543521,"name":"SMK NEGERI 1 MOJOKERTO"},"geometry":{"type":"Point","coordinates":[112.4543521,-7.4691081]}},{"type":"Feature","properties":{"lat":-7.464865,"long":112.4210628,"name":"SMK NEGERI 2 MOJOKERTO"},"geometry":{"type":"Point","coordinates":[112.4210628,-7.464865]}},{"type":"Feature","properties":{"lat":-8.1127069,"long":112.1619988,"name":"SMK NEGERI 1 BLITAR"},"geometry":{"type":"Point","coordinates":[112.1619988,-8.1127069]}},{"type":"Feature","properties":{"lat":-8.099949,"long":112.1453556,"name":"SMK NEGERI 2 BLITAR"},"geometry":{"type":"Point","coordinates":[112.1453556,-8.099949]}},{"type":"Feature","properties":{"lat":-8.0943646,"long":112.1737009,"name":"SMK NEGERI 3 BLITAR"},"geometry":{"type":"Point","coordinates":[112.1737009,-8.0943646]}},{"type":"Feature","properties":{"lat":-7.6452268,"long":112.9121444,"name":"SMK NEGERI 1 PASURUAN"},"geometry":{"type":"Point","coordinates":[112.9121444,-7.6452268]}},{"type":"Feature","properties":{"lat":-7.6674567,"long":112.9034443,"name":"SMK NEGERI 2 PASURUAN"},"geometry":{"type":"Point","coordinates":[112.9034443,-7.6674567]}},{"type":"Feature","properties":{"lat":-7.7817072,"long":113.2094144,"name":"SMK NEGERI 1 PROBOLINGGO"},"geometry":{"type":"Point","coordinates":[113.2094144,-7.7817072]}},{"type":"Feature","properties":{"lat":-7.75515,"long":113.2118977,"name":"SMK NEGERI 3 PROBOLINGGO"},"geometry":{"type":"Point","coordinates":[113.2118977,-7.75515]}},{"type":"Feature","properties":{"lat":-7.77157,"long":113.2116652,"name":"SMK NEGERI 2 PROBOLINGGO"},"geometry":{"type":"Point","coordinates":[113.2116652,-7.77157]}},{"type":"Feature","properties":{"lat":-7.7745024,"long":113.1778743,"name":"SMK NEGERI 4 PROBOLINGGO"},"geometry":{"type":"Point","coordinates":[113.1778743,-7.7745024]}},{"type":"Feature","properties":{"lat":-7.8676781,"long":112.5250491,"name":"SMK NEGERI 1 BATU"},"geometry":{"type":"Point","coordinates":[112.5250491,-7.8676781]}},{"type":"Feature","properties":{"lat":-7.863769,"long":112.5376682,"name":"SMK NEGERI 2 BATU"},"geometry":{"type":"Point","coordinates":[112.5376682,-7.863769]}},{"type":"Feature","properties":{"lat":-7.8522274,"long":112.5169228,"name":"SMK NEGERI 3 BATU"},"geometry":{"type":"Point","coordinates":[112.5169228,-7.8522274]}},{"type":"Feature","properties":{"lat":-7.2337515,"long":112.5586788,"name":"SMK NEGERI 1 CERME"},"geometry":{"type":"Point","coordinates":[112.5586788,-7.2337515]}},{"type":"Feature","properties":{"lat":-6.9625307,"long":112.5090184,"name":"SMK NEGERI 1 SIDAYU"},"geometry":{"type":"Point","coordinates":[112.5090184,-6.9625307]}},{"type":"Feature","properties":{"lat":-7.3311587,"long":112.6360193,"name":"SMK NEGERI 1 DRIYOREJO"},"geometry":{"type":"Point","coordinates":[112.6360193,-7.3311587]}},{"type":"Feature","properties":{"lat":-7.1654471,"long":112.5139698,"name":"SMK NEGERI 1 DUDUKSAMPEYAN"},"geometry":{"type":"Point","coordinates":[112.5139698,-7.1654471]}},{"type":"Feature","properties":{"lat":-7.434515,"long":112.7193748,"name":"SMK NEGERI 1 BUDURAN"},"geometry":{"type":"Point","coordinates":[112.7193748,-7.434515]}},{"type":"Feature","properties":{"lat":-7.4374243,"long":112.7204551,"name":"SMK NEGERI 2 BUDURAN"},"geometry":{"type":"Point","coordinates":[112.7204551,-7.4374243]}},{"type":"Feature","properties":{"lat":-7.4521655,"long":112.7213469,"name":"SMK NEGERI 1 SIDOARJO"},"geometry":{"type":"Point","coordinates":[112.7213469,-7.4521655]}},{"type":"Feature","properties":{"lat":-7.4345683,"long":112.7212815,"name":"SMK NEGERI 3 BUDURAN"},"geometry":{"type":"Point","coordinates":[112.7212815,-7.4345683]}},{"type":"Feature","properties":{"lat":-7.5547783,"long":112.7253572,"name":"SMK NEGERI 1 JABON"},"geometry":{"type":"Point","coordinates":[112.7253572,-7.5547783]}},{"type":"Feature","properties":{"lat":-7.4866344,"long":112.4251653,"name":"SMK NEGERI 1 SOOKO"},"geometry":{"type":"Point","coordinates":[112.4251653,-7.4866344]}},{"type":"Feature","properties":{"lat":-7.5515581,"long":112.4779496,"name":"SMK NEGERI 1 DLANGGU"},"geometry":{"type":"Point","coordinates":[112.4779496,-7.5515581]}},{"type":"Feature","properties":{"lat":-7.5342387,"long":112.5578823,"name":"SMK NEGERI 1 PUNGGING"},"geometry":{"type":"Point","coordinates":[112.5578823,-7.5342387]}},{"type":"Feature","properties":{"lat":-7.4025394,"long":112.4509612,"name":"SMK NEGERI 1 JETIS"},"geometry":{"type":"Point","coordinates":[112.4509612,-7.4025394]}},{"type":"Feature","properties":{"lat":-7.5832851,"long":112.4204135,"name":"SMK NEGERI 1 JATIREJO"},"geometry":{"type":"Point","coordinates":[112.4204135,-7.5832851]}},{"type":"Feature","properties":{"lat":-7.4034587,"long":112.3604256,"name":"SMK NEGERI 1 KEMLAGI"},"geometry":{"type":"Point","coordinates":[112.3604256,-7.4034587]}},{"type":"Feature","properties":{"lat":-7.5519138,"long":112.3883958,"name":"SMK NEGERI 1 TROWULAN"},"geometry":{"type":"Point","coordinates":[112.3883958,-7.5519138]}},{"type":"Feature","properties":{"lat":-7.4720287,"long":112.4737611,"name":"SMK NEGERI MOJOANYAR"},"geometry":{"type":"Point","coordinates":[112.4737611,-7.4720287]}},{"type":"Feature","properties":{"lat":-7.5525208,"long":112.2261809,"name":"SMK NEGERI 1 JOMBANG"},"geometry":{"type":"Point","coordinates":[112.2261809,-7.5525208]}},{"type":"Feature","properties":{"lat":-7.5558129,"long":112.2321305,"name":"SMK NEGERI 2 JOMBANG"},"geometry":{"type":"Point","coordinates":[112.2321305,-7.5558129]}},{"type":"Feature","properties":{"lat":-7.6878902,"long":112.356022,"name":"SMK NEGERI WONOSALAM"},"geometry":{"type":"Point","coordinates":[112.356022,-7.6878902]}},{"type":"Feature","properties":{"lat":-7.5548206,"long":112.2244836,"name":"SMK NEGERI 3 JOMBANG"},"geometry":{"type":"Point","coordinates":[112.2244836,-7.5548206]}},{"type":"Feature","properties":{"lat":-7.6296332,"long":112.1850788,"name":"SMK NEGERI GUDO JOMBANG"},"geometry":{"type":"Point","coordinates":[112.1850788,-7.6296332]}},{"type":"Feature","properties":{"lat":-7.4272835,"long":112.2861604,"name":"SMK NEGERI KUDU"},"geometry":{"type":"Point","coordinates":[112.2861604,-7.4272835]}},{"type":"Feature","properties":{"lat":-7.5695646,"long":112.3529159,"name":"SMK NEGERI MOJOAGUNG"},"geometry":{"type":"Point","coordinates":[112.3529159,-7.5695646]}},{"type":"Feature","properties":{"lat":-7.4181773,"long":112.2662739,"name":"SMK NEGERI KABUH"},"geometry":{"type":"Point","coordinates":[112.2662739,-7.4181773]}},{"type":"Feature","properties":{"lat":-7.1652018,"long":111.8748378,"name":"SMK NEGERI 1 BOJONEGORO"},"geometry":{"type":"Point","coordinates":[111.8748378,-7.1652018]}},{"type":"Feature","properties":{"lat":-7.1805665,"long":111.9058392,"name":"SMK NEGERI 4 BOJONEGORO"},"geometry":{"type":"Point","coordinates":[111.9058392,-7.1805665]}},{"type":"Feature","properties":{"lat":-7.1311851,"long":112.1034743,"name":"SMK NEGERI 1 BAURENO"},"geometry":{"type":"Point","coordinates":[112.1034743,-7.1311851]}},{"type":"Feature","properties":{"lat":-7.3309293,"long":111.9030412,"name":"SMK NEGERI TEMAYANG"},"geometry":{"type":"Point","coordinates":[111.9030412,-7.3309293]}},{"type":"Feature","properties":{"lat":-7.3968646,"long":111.7290811,"name":"SMK NEGERI SEKAR"},"geometry":{"type":"Point","coordinates":[111.7290811,-7.3968646]}},{"type":"Feature","properties":{"lat":-7.1609942,"long":111.8754528,"name":"SMK NEGERI 2 BOJONEGORO"},"geometry":{"type":"Point","coordinates":[111.8754528,-7.1609942]}},{"type":"Feature","properties":{"lat":-7.1634968,"long":111.8759593,"name":"SMK NEGERI 3 BOJONEGORO"},"geometry":{"type":"Point","coordinates":[111.8759593,-7.1634968]}},{"type":"Feature","properties":{"lat":-7.3029412,"long":111.9081819,"name":"SMK NEGERI SUGIHWARAS"},"geometry":{"type":"Point","coordinates":[111.9081819,-7.3029412]}},{"type":"Feature","properties":{"lat":-7.1810316,"long":111.8594885,"name":"SMK NEGERI DANDER"},"geometry":{"type":"Point","coordinates":[111.8594885,-7.1810316]}},{"type":"Feature","properties":{"lat":-7.1905386,"long":111.6741774,"name":"SMK NEGERI PURWOSARI"},"geometry":{"type":"Point","coordinates":[111.6741774,-7.1905386]}},{"type":"Feature","properties":{"lat":-7.2965527,"long":111.7219017,"name":"SMK NEGERI NGAMBON"},"geometry":{"type":"Point","coordinates":[111.7219017,-7.2965527]}},{"type":"Feature","properties":{"lat":-7.2388651,"long":111.5407384,"name":"SMK NEGERI NGRAHO"},"geometry":{"type":"Point","coordinates":[111.5407384,-7.2388651]}},{"type":"Feature","properties":{"lat":-7.123359,"long":111.618268,"name":"SMK NEGERI KASIMAN"},"geometry":{"type":"Point","coordinates":[111.618268,-7.123359]}},{"type":"Feature","properties":{"lat":-7.8036553,"long":112.0667998,"name":"SMK NEGERI NGASEM"},"geometry":{"type":"Point","coordinates":[112.0667998,-7.8036553]}},{"type":"Feature","properties":{"lat":-7.109705,"long":112.025933,"name":"SMK NEGERI 1 KANOR"},"geometry":{"type":"Point","coordinates":[112.025933,-7.109705]}},{"type":"Feature","properties":{"lat":-7.2227821,"long":112.0646553,"name":"SMK NEGERI SUMBERREJO"},"geometry":{"type":"Point","coordinates":[112.0646553,-7.2227821]}},{"type":"Feature","properties":{"lat":-7.3495216,"long":111.5018803,"name":"SMK NEGERI MARGOMULYO"},"geometry":{"type":"Point","coordinates":[111.5018803,-7.3495216]}},{"type":"Feature","properties":{"lat":-6.901015,"long":112.042104,"name":"SMK NEGERI 1 TUBAN"},"geometry":{"type":"Point","coordinates":[112.042104,-6.901015]}},{"type":"Feature","properties":{"lat":-6.8607247,"long":111.9270122,"name":"SMK NEGERI 3 TUBAN"},"geometry":{"type":"Point","coordinates":[111.9270122,-6.8607247]}},{"type":"Feature","properties":{"lat":-6.8608845,"long":111.6551043,"name":"SMK NEGERI JATIROGO"},"geometry":{"type":"Point","coordinates":[111.6551043,-6.8608845]}},{"type":"Feature","properties":{"lat":-6.8041443,"long":111.866995,"name":"SMK NEGERI 1 TAMBAKBOYO"},"geometry":{"type":"Point","coordinates":[111.866995,-6.8041443]}},{"type":"Feature","properties":{"lat":-6.9056312,"long":112.0645165,"name":"SMK NEGERI 2 TUBAN"},"geometry":{"type":"Point","coordinates":[112.0645165,-6.9056312]}},{"type":"Feature","properties":{"lat":-6.970284118,"long":111.77926864475012,"name":"SMK NEGERI 1 SINGGAHAN"},"geometry":{"type":"Point","coordinates":[111.77926864475012,-6.970284118]}},{"type":"Feature","properties":{"lat":-7.0544278,"long":112.0322687,"name":"SMK NEGERI RENGEL"},"geometry":{"type":"Point","coordinates":[112.0322687,-7.0544278]}},{"type":"Feature","properties":{"lat":-7.0120797,"long":112.1421461,"name":"SMK NEGERI WIDANG"},"geometry":{"type":"Point","coordinates":[112.1421461,-7.0120797]}},{"type":"Feature","properties":{"lat":-6.8992955,"long":112.1453285,"name":"SMK NEGERI  PALANG"},"geometry":{"type":"Point","coordinates":[112.1453285,-6.8992955]}},{"type":"Feature","properties":{"lat":-7.1135928,"long":112.4198365,"name":"SMK NEGERI 1 LAMONGAN"},"geometry":{"type":"Point","coordinates":[112.4198365,-7.1135928]}},{"type":"Feature","properties":{"lat":-6.8893059,"long":112.2142372,"name":"SMK NEGERI BRONDONG"},"geometry":{"type":"Point","coordinates":[112.2142372,-6.8893059]}},{"type":"Feature","properties":{"lat":-7.1914167,"long":112.4583723,"name":"SMK NEGERI SARIREJO"},"geometry":{"type":"Point","coordinates":[112.4583723,-7.1914167]}},{"type":"Feature","properties":{"lat":-6.9999295,"long":112.3840974,"name":"SMK NEGERI 1 KALITENGAH"},"geometry":{"type":"Point","coordinates":[112.3840974,-6.9999295]}},{"type":"Feature","properties":{"lat":-7.1159949,"long":112.4208785,"name":"SMK NEGERI 2 LAMONGAN"},"geometry":{"type":"Point","coordinates":[112.4208785,-7.1159949]}},{"type":"Feature","properties":{"lat":-7.2871768,"long":112.2185011,"name":"SMK NEGERI 1 SAMBENG"},"geometry":{"type":"Point","coordinates":[112.2185011,-7.2871768]}},{"type":"Feature","properties":{"lat":-7.5489345,"long":111.6485569,"name":"SMK NEGERI 1 WONOASRI"},"geometry":{"type":"Point","coordinates":[111.6485569,-7.5489345]}},{"type":"Feature","properties":{"lat":-7.623007,"long":111.4790338,"name":"SMK NEGERI 2 JIWAN"},"geometry":{"type":"Point","coordinates":[111.4790338,-7.623007]}},{"type":"Feature","properties":{"lat":-7.7160867,"long":111.4888352,"name":"SMK NEGERI 1 KEBONSARI"},"geometry":{"type":"Point","coordinates":[111.4888352,-7.7160867]}},{"type":"Feature","properties":{"lat":-7.6726329,"long":111.7017959,"name":"SMK NEGERI KARE"},"geometry":{"type":"Point","coordinates":[111.7017959,-7.6726329]}},{"type":"Feature","properties":{"lat":-7.6025452,"long":111.5086579,"name":"SMK NEGERI 1 JIWAN"},"geometry":{"type":"Point","coordinates":[111.5086579,-7.6025452]}},{"type":"Feature","properties":{"lat":-7.6963214,"long":111.5148001,"name":"SMK NEGERI 1 GEGER"},"geometry":{"type":"Point","coordinates":[111.5148001,-7.6963214]}},{"type":"Feature","properties":{"lat":-7.5944815,"long":111.7425519,"name":"SMK NEGERI 1 GEMARANG"},"geometry":{"type":"Point","coordinates":[111.7425519,-7.5944815]}},{"type":"Feature","properties":{"lat":-7.5570081,"long":111.657787,"name":"SMK NEGERI 1 MEJAYAN"},"geometry":{"type":"Point","coordinates":[111.657787,-7.5570081]}},{"type":"Feature","properties":{"lat":-7.4322582,"long":111.4630083,"name":"SMK NEGERI 2 NGAWI"},"geometry":{"type":"Point","coordinates":[111.4630083,-7.4322582]}},{"type":"Feature","properties":{"lat":-7.4231436,"long":111.5764168,"name":"SMK NEGERI 1 BRINGIN"},"geometry":{"type":"Point","coordinates":[111.5764168,-7.4231436]}},{"type":"Feature","properties":{"lat":-7.4014591,"long":111.4417729,"name":"SMK NEGERI 1 NGAWI"},"geometry":{"type":"Point","coordinates":[111.4417729,-7.4014591]}},{"type":"Feature","properties":{"lat":-7.3740577,"long":111.3681423,"name":"SMK NEGERI 1 PITU"},"geometry":{"type":"Point","coordinates":[111.3681423,-7.3740577]}},{"type":"Feature","properties":{"lat":-7.5013875,"long":111.4271298,"name":"SMK NEGERI 1 GENENG"},"geometry":{"type":"Point","coordinates":[111.4271298,-7.5013875]}},{"type":"Feature","properties":{"lat":-7.4155447,"long":111.4965113,"name":"SMK NEGERI KASREMAN"},"geometry":{"type":"Point","coordinates":[111.4965113,-7.4155447]}},{"type":"Feature","properties":{"lat":-7.6023082,"long":110.9476688,"name":"SMK NEGERI 1 KARANGANYAR"},"geometry":{"type":"Point","coordinates":[110.9476688,-7.6023082]}},{"type":"Feature","properties":{"lat":-7.4918851,"long":111.3091817,"name":"SMK NEGERI 1 PARON"},"geometry":{"type":"Point","coordinates":[111.3091817,-7.4918851]}},{"type":"Feature","properties":{"lat":-7.558004,"long":111.285294,"name":"SMK NEGERI 1 KENDAL"},"geometry":{"type":"Point","coordinates":[110.453476,-7.2395442]}},{"type":"Feature","properties":{"lat":-7.5228134,"long":111.3780281,"name":"SMK NEGERI 1 GERIH"},"geometry":{"type":"Point","coordinates":[111.3780281,-7.5228134]}},{"type":"Feature","properties":{"lat":-7.4830053,"long":111.1712766,"name":"SMK NEGERI 1 SINE"},"geometry":{"type":"Point","coordinates":[111.1712766,-7.4830053]}},{"type":"Feature","properties":{"lat":-7.658551,"long":111.3266108,"name":"SMK NEGERI 1 MAGETAN"},"geometry":{"type":"Point","coordinates":[111.3266108,-7.658551]}},{"type":"Feature","properties":{"lat":-7.6457338,"long":111.4246435,"name":"SMK NEGERI 1 BENDO"},"geometry":{"type":"Point","coordinates":[111.4246435,-7.6457338]}},{"type":"Feature","properties":{"lat":-7.5345071,"long":111.4783208,"name":"SMK NEGERI KARTOHARJO"},"geometry":{"type":"Point","coordinates":[111.4783208,-7.5345071]}},{"type":"Feature","properties":{"lat":-7.6832298,"long":111.4502021,"name":"SMK NEGERI TAKERAN"},"geometry":{"type":"Point","coordinates":[111.4502021,-7.6832298]}},{"type":"Feature","properties":{"lat":-7.6578436,"long":111.3248989,"name":"SMK NEGERI 2 MAGETAN"},"geometry":{"type":"Point","coordinates":[111.3248989,-7.6578436]}},{"type":"Feature","properties":{"lat":-7.7133469,"long":111.2477028,"name":"SMK NEGERI PONCOL"},"geometry":{"type":"Point","coordinates":[111.2477028,-7.7133469]}},{"type":"Feature","properties":{"lat":-7.8721813,"long":111.4617027,"name":"SMK NEGERI 1 PONOROGO"},"geometry":{"type":"Point","coordinates":[111.4617027,-7.8721813]}},{"type":"Feature","properties":{"lat":-7.8814367,"long":111.4593592,"name":"SMK NEGERI 2 PONOROGO"},"geometry":{"type":"Point","coordinates":[111.4593592,-7.8814367]}},{"type":"Feature","properties":{"lat":-7.8761395,"long":111.34011,"name":"SMK NEGERI 1 BADEGAN"},"geometry":{"type":"Point","coordinates":[111.34011,-7.8761395]}},{"type":"Feature","properties":{"lat":-8.0102592,"long":111.4189543,"name":"SMK NEGERI 1 SLAHUNG"},"geometry":{"type":"Point","coordinates":[111.4189543,-8.0102592]}},{"type":"Feature","properties":{"lat":-7.8513877,"long":111.4997283,"name":"SMK NEGERI 1 JENANGAN"},"geometry":{"type":"Point","coordinates":[111.4997283,-7.8513877]}},{"type":"Feature","properties":{"lat":-7.9722369,"long":111.5693589,"name":"SMK NEGERI 1 SAWOO"},"geometry":{"type":"Point","coordinates":[111.5693589,-7.9722369]}},{"type":"Feature","properties":{"lat":-7.9109064,"long":111.5277356,"name":"SMK NEGERI 1  MLARAK"},"geometry":{"type":"Point","coordinates":[111.5277356,-7.9109064]}},{"type":"Feature","properties":{"lat":-8.2063517,"long":111.0901273,"name":"SMK NEGERI 1 PACITAN"},"geometry":{"type":"Point","coordinates":[111.0901273,-8.2063517]}},{"type":"Feature","properties":{"lat":-8.1028747,"long":110.9980513,"name":"SMK NEGERI 1 DONOROJO"},"geometry":{"type":"Point","coordinates":[110.9980513,-8.1028747]}},{"type":"Feature","properties":{"lat":-7.9476582,"long":111.1863827,"name":"SMK NEGERI 1 NAWANGAN"},"geometry":{"type":"Point","coordinates":[111.1863827,-7.9476582]}},{"type":"Feature","properties":{"lat":-8.2240671,"long":111.2880119,"name":"SMK NEGERI NGADIROJO"},"geometry":{"type":"Point","coordinates":[111.2880119,-8.2240671]}},{"type":"Feature","properties":{"lat":-8.2032507,"long":111.0907647,"name":"SMK NEGERI 3 PACITAN"},"geometry":{"type":"Point","coordinates":[111.0907647,-8.2032507]}},{"type":"Feature","properties":{"lat":-8.2007401,"long":111.0848022,"name":"SMK NEGERI 2 PACITAN"},"geometry":{"type":"Point","coordinates":[111.0848022,-8.2007401]}},{"type":"Feature","properties":{"lat":-7.9972418,"long":111.2613981,"name":"SMK NEGERI BANDAR"},"geometry":{"type":"Point","coordinates":[111.2613981,-7.9972418]}},{"type":"Feature","properties":{"lat":-8.1995181,"long":111.3433826,"name":"SMK NEGERI 1 SUDIMORO"},"geometry":{"type":"Point","coordinates":[111.3433826,-8.1995181]}},{"type":"Feature","properties":{"lat":-8.1729966,"long":111.0416306,"name":"SMK NEGERI PRINGKUKU"},"geometry":{"type":"Point","coordinates":[111.0416306,-8.1729966]}},{"type":"Feature","properties":{"lat":-8.25,"long":111.370197,"name":"SMK NEGERI 2 DONOROJO"},"geometry":{"type":"Point","coordinates":[111.370197,-8.25]}},{"type":"Feature","properties":{"lat":-8.0081941,"long":111.182167,"name":"SMK NEGERI 2 NAWANGAN"},"geometry":{"type":"Point","coordinates":[111.182167,-8.0081941]}},{"type":"Feature","properties":{"lat":-8.1995181,"long":111.3433826,"name":"SMK NEGERI 2 SUDIMORO"},"geometry":{"type":"Point","coordinates":[111.3433826,-8.1995181]}},{"type":"Feature","properties":{"lat":-8.1740382,"long":111.2121299,"name":"SMK NEGERI KEBONAGUNG"},"geometry":{"type":"Point","coordinates":[111.2121299,-8.1740382]}},{"type":"Feature","properties":{"lat":-8.1104904,"long":111.3359706,"name":"SMK NEGERI TULAKAN"},"geometry":{"type":"Point","coordinates":[111.3359706,-8.1104904]}},{"type":"Feature","properties":{"lat":-7.8359767,"long":112.1725774,"name":"SMK NEGERI 1 PLOSOKLATEN"},"geometry":{"type":"Point","coordinates":[112.1725774,-7.8359767]}},{"type":"Feature","properties":{"lat":-7.8036553,"long":112.0667998,"name":"SMK NEGERI 1 NGASEM"},"geometry":{"type":"Point","coordinates":[112.0667998,-7.8036553]}},{"type":"Feature","properties":{"lat":-7.9891636,"long":111.9551466,"name":"SMK NEGERI 1 KRAS"},"geometry":{"type":"Point","coordinates":[111.9551466,-7.9891636]}},{"type":"Feature","properties":{"lat":-7.6534756,"long":112.0933553,"name":"SMK NEGERI 1 PURWOASRI"},"geometry":{"type":"Point","coordinates":[112.0933553,-7.6534756]}},{"type":"Feature","properties":{"lat":-7.7468263,"long":111.975836,"name":"SMK NEGERI 1 GROGOL"},"geometry":{"type":"Point","coordinates":[111.975836,-7.7468263]}},{"type":"Feature","properties":{"lat":-7.8292268,"long":111.9711767,"name":"SMK NEGERI 1 SEMEN"},"geometry":{"type":"Point","coordinates":[111.9711767,-7.8292268]}},{"type":"Feature","properties":{"lat":-7.6046488,"long":111.8931404,"name":"SMK NEGERI 1 NGANJUK"},"geometry":{"type":"Point","coordinates":[111.8931404,-7.6046488]}},{"type":"Feature","properties":{"lat":-7.60122,"long":111.8743233,"name":"SMK NEGERI 1 BAGOR"},"geometry":{"type":"Point","coordinates":[111.8743233,-7.60122]}},{"type":"Feature","properties":{"lat":-7.6114701,"long":111.9112302,"name":"SMK NEGERI 2 NGANJUK"},"geometry":{"type":"Point","coordinates":[111.9112302,-7.6114701]}},{"type":"Feature","properties":{"lat":-7.537463,"long":111.985367,"name":"SMK NEGERI 1 GONDANG"},"geometry":{"type":"Point","coordinates":[111.985367,-7.537463]}},{"type":"Feature","properties":{"lat":-7.6009209,"long":112.1062441,"name":"SMK NEGERI 1 KERTOSONO"},"geometry":{"type":"Point","coordinates":[112.1062441,-7.6009209]}},{"type":"Feature","properties":{"lat":-7.53643,"long":112.0566513,"name":"SMK NEGERI 1 LENGKONG"},"geometry":{"type":"Point","coordinates":[112.0566513,-7.53643]}},{"type":"Feature","properties":{"lat":-7.579171,"long":111.8675347,"name":"SMK  NEGERI 2 BAGOR"},"geometry":{"type":"Point","coordinates":[111.8675347,-7.579171]}},{"type":"Feature","properties":{"lat":-7.6164029,"long":112.0187421,"name":"SMK NEGERI 1 TANJUNGANOM"},"geometry":{"type":"Point","coordinates":[112.0187421,-7.6164029]}},{"type":"Feature","properties":{"lat":-8.1425362,"long":112.1372754,"name":"SMK NEGERI 1 KADEMANGAN"},"geometry":{"type":"Point","coordinates":[112.1372754,-8.1425362]}},{"type":"Feature","properties":{"lat":-8.0493376,"long":112.4162162,"name":"SMK NEGERI 1 DOKO"},"geometry":{"type":"Point","coordinates":[112.4162162,-8.0493376]}},{"type":"Feature","properties":{"lat":-8.0054069,"long":112.0670227,"name":"SMK NEGERI 1 UDANAWU"},"geometry":{"type":"Point","coordinates":[112.0670227,-8.0054069]}},{"type":"Feature","properties":{"lat":-8.2577836,"long":112.0045277,"name":"SMK NEGERI 1 BAKUNG"},"geometry":{"type":"Point","coordinates":[112.0045277,-8.2577836]}},{"type":"Feature","properties":{"lat":-8.2513837,"long":112.2780204,"name":"SMK NEGERI 1 PANGGUNGREJO"},"geometry":{"type":"Point","coordinates":[112.2780204,-8.2513837]}},{"type":"Feature","properties":{"lat":-8.0407414,"long":112.2146492,"name":"SMK NEGERI 1 NGLEGOK"},"geometry":{"type":"Point","coordinates":[112.2146492,-8.0407414]}},{"type":"Feature","properties":{"lat":-8.0814886,"long":111.8985092,"name":"SMK NEGERI 1 BOYOLANGU"},"geometry":{"type":"Point","coordinates":[111.8985092,-8.0814886]}},{"type":"Feature","properties":{"lat":-8.0818062,"long":111.8994838,"name":"SMK NEGERI 2 BOYOLANGU"},"geometry":{"type":"Point","coordinates":[111.8994838,-8.0818062]}},{"type":"Feature","properties":{"lat":-7.9976,"long":111.8154713,"name":"SMK NEGERI 1 PAGERWOJO"},"geometry":{"type":"Point","coordinates":[111.8154713,-7.9976]}},{"type":"Feature","properties":{"lat":-8.0833637,"long":111.899403,"name":"SMK NEGERI 3 BOYOLANGU"},"geometry":{"type":"Point","coordinates":[111.899403,-8.0833637]}},{"type":"Feature","properties":{"lat":-8.109871,"long":112.0375583,"name":"SMK NEGERI 1 REJOTANGAN"},"geometry":{"type":"Point","coordinates":[112.0375583,-8.109871]}},{"type":"Feature","properties":{"lat":-8.1663098,"long":111.7394552,"name":"SMK NEGERI 1 BANDUNG"},"geometry":{"type":"Point","coordinates":[111.7394552,-8.1663098]}},{"type":"Feature","properties":{"lat":-8.1029509,"long":111.8934037,"name":"SMK NEGERI 1 TULUNGAGUNG"},"geometry":{"type":"Point","coordinates":[111.8934037,-8.1029509]}},{"type":"Feature","properties":{"lat":-8.0686822,"long":111.9510108,"name":"SMK NEGERI 2  TULUNGAGUNG"},"geometry":{"type":"Point","coordinates":[111.9510108,-8.0686822]}},{"type":"Feature","properties":{"lat":-8.0943802,"long":111.7284793,"name":"SMK NEGERI 1 POGALAN"},"geometry":{"type":"Point","coordinates":[111.7284793,-8.0943802]}},{"type":"Feature","properties":{"lat":-8.0558946,"long":111.7008673,"name":"SMK NEGERI 1 TRENGGALEK"},"geometry":{"type":"Point","coordinates":[111.7008673,-8.0558946]}},{"type":"Feature","properties":{"lat":-8.0552437,"long":111.7110867,"name":"SMK NEGERI 2 TRENGGALEK"},"geometry":{"type":"Point","coordinates":[111.7110867,-8.0552437]}},{"type":"Feature","properties":{"lat":-8.26503,"long":111.7208513,"name":"SMK NEGERI 1 WATULIMO"},"geometry":{"type":"Point","coordinates":[111.7208513,-8.26503]}},{"type":"Feature","properties":{"lat":-8.093631,"long":111.6312057,"name":"SMK NEGERI 1 SURUH"},"geometry":{"type":"Point","coordinates":[111.6312057,-8.093631]}},{"type":"Feature","properties":{"lat":-7.9064935,"long":112.6571667,"name":"SMK NEGERI 1 SINGOSARI"},"geometry":{"type":"Point","coordinates":[112.6571667,-7.9064935]}},{"type":"Feature","properties":{"lat":-7.8389157,"long":112.454891,"name":"SMK NEGERI PUJON"},"geometry":{"type":"Point","coordinates":[112.454891,-7.8389157]}},{"type":"Feature","properties":{"lat":-8.1687127,"long":112.6880654,"name":"SMK NEGERI 1 TUREN"},"geometry":{"type":"Point","coordinates":[112.6880654,-8.1687127]}},{"type":"Feature","properties":{"lat":-8.1780306,"long":112.6862258,"name":"SMK NEGERI 2 TUREN"},"geometry":{"type":"Point","coordinates":[112.6862258,-8.1780306]}},{"type":"Feature","properties":{"lat":-7.913637,"long":112.6383138,"name":"SMK NEGERI 2 SINGOSARI"},"geometry":{"type":"Point","coordinates":[112.6383138,-7.913637]}},{"type":"Feature","properties":{"lat":-8.1427021,"long":112.5835958,"name":"SMK NEGERI KEPANJEN"},"geometry":{"type":"Point","coordinates":[112.5835958,-8.1427021]}},{"type":"Feature","properties":{"lat":-8.2436747,"long":112.6179421,"name":"SMK NEGERI 1 GEDANGAN"},"geometry":{"type":"Point","coordinates":[112.6179421,-8.2436747]}},{"type":"Feature","properties":{"lat":-8.233049,"long":112.876556,"name":"SMK NEGERI 1 AMPELGADING"},"geometry":{"type":"Point","coordinates":[112.876556,-8.233049]}},{"type":"Feature","properties":{"lat":-7.6005659,"long":112.7900112,"name":"SMK NEGERI 1 BANGIL"},"geometry":{"type":"Point","coordinates":[112.7900112,-7.6005659]}},{"type":"Feature","properties":{"lat":-7.7148213,"long":113.0666893,"name":"SMK NEGERI 1 NGULING"},"geometry":{"type":"Point","coordinates":[113.0666893,-7.7148213]}},{"type":"Feature","properties":{"lat":-7.7293712,"long":112.9626125,"name":"SMK NEGERI WINONGAN"},"geometry":{"type":"Point","coordinates":[112.9626125,-7.7293712]}},{"type":"Feature","properties":{"lat":-7.1744203,"long":111.5183335,"name":"SMK NEGERI REMBANG"},"geometry":{"type":"Point","coordinates":[111.5183335,-7.1744203]}},{"type":"Feature","properties":{"lat":-7.6975929,"long":112.6449498,"name":"SMK NEGERI 1 PRIGEN"},"geometry":{"type":"Point","coordinates":[112.6449498,-7.6975929]}},{"type":"Feature","properties":{"lat":-7.587076,"long":112.7186909,"name":"SMK NEGERI 1 BEJI"},"geometry":{"type":"Point","coordinates":[112.7186909,-7.587076]}},{"type":"Feature","properties":{"lat":-7.6841294,"long":112.693863,"name":"SMK NEGERI 1 PURWOSARI"},"geometry":{"type":"Point","coordinates":[112.693863,-7.6841294]}},{"type":"Feature","properties":{"lat":-7.6992504,"long":112.9866677,"name":"SMK NEGERI 1 GRATI"},"geometry":{"type":"Point","coordinates":[112.9866677,-7.6992504]}},{"type":"Feature","properties":{"lat":-7.8302843,"long":112.8636234,"name":"SMK NEGERI PUSPO"},"geometry":{"type":"Point","coordinates":[112.8636234,-7.8302843]}},{"type":"Feature","properties":{"lat":-7.8747084,"long":112.8036512,"name":"SMK NEGERI TUTUR"},"geometry":{"type":"Point","coordinates":[112.8036512,-7.8747084]}},{"type":"Feature","properties":{"lat":-7.7278796,"long":112.7085032,"name":"SMK NEGERI SUKOREJO"},"geometry":{"type":"Point","coordinates":[112.7085032,-7.7278796]}},{"type":"Feature","properties":{"lat":-7.6961707,"long":112.8205322,"name":"SMK NEGERI 1 WONOREJO"},"geometry":{"type":"Point","coordinates":[112.8205322,-7.6961707]}},{"type":"Feature","properties":{"lat":-7.6175858,"long":112.6863572,"name":"SMK NEGERI 1 GEMPOL"},"geometry":{"type":"Point","coordinates":[112.6863572,-7.6175858]}},{"type":"Feature","properties":{"lat":-7.7042693,"long":112.7249066,"name":"SMK NEGERI 2 SUKOREJO"},"geometry":{"type":"Point","coordinates":[112.7249066,-7.7042693]}},{"type":"Feature","properties":{"lat":-7.7594567,"long":113.4119403,"name":"SMK NEGERI 1 KRAKSAAN"},"geometry":{"type":"Point","coordinates":[113.4119403,-7.7594567]}},{"type":"Feature","properties":{"lat":-7.7594563,"long":113.3966193,"name":"SMK NEGERI 2 KRAKSAAN"},"geometry":{"type":"Point","coordinates":[113.3966193,-7.7594563]}},{"type":"Feature","properties":{"lat":-7.8052731,"long":113.2995772,"name":"SMK NEGERI GENDING"},"geometry":{"type":"Point","coordinates":[113.2995772,-7.8052731]}},{"type":"Feature","properties":{"lat":-7.7374763,"long":113.4980733,"name":"SMK NEGERI KOTAANYAR"},"geometry":{"type":"Point","coordinates":[113.4980733,-7.7374763]}},{"type":"Feature","properties":{"lat":-7.8395449,"long":113.3307317,"name":"SMK NEGERI BANYUANYAR"},"geometry":{"type":"Point","coordinates":[113.3307317,-7.8395449]}},{"type":"Feature","properties":{"lat":-7.7899792,"long":113.1461186,"name":"SMK NEGERI WONOMERTO"},"geometry":{"type":"Point","coordinates":[113.1461186,-7.7899792]}},{"type":"Feature","properties":{"lat":-7.7517411,"long":113.1544818,"name":"SMK NEGERI SUMBERASIH"},"geometry":{"type":"Point","coordinates":[113.1544818,-7.7517411]}},{"type":"Feature","properties":{"lat":-7.931562,"long":113.1032528,"name":"SMK NEGERI SUMBER"},"geometry":{"type":"Point","coordinates":[113.1032528,-7.931562]}},{"type":"Feature","properties":{"lat":-7.8737612,"long":113.0584352,"name":"SMK NEGERI SUKAPURA"},"geometry":{"type":"Point","coordinates":[113.0584352,-7.8737612]}},{"type":"Feature","properties":{"lat":-7.7549437,"long":113.2364302,"name":"SMK NEGERI 1 DRINGU"},"geometry":{"type":"Point","coordinates":[113.2364302,-7.7549437]}},{"type":"Feature","properties":{"lat":-8.1254923,"long":113.215843,"name":"SMK NEGERI 1 LUMAJANG"},"geometry":{"type":"Point","coordinates":[113.215843,-8.1254923]}},{"type":"Feature","properties":{"lat":-8.1151941,"long":113.224216,"name":"SMK NEGERI 2 LUMAJANG"},"geometry":{"type":"Point","coordinates":[113.224216,-8.1151941]}},{"type":"Feature","properties":{"lat":-8.1582365,"long":113.2526203,"name":"SMK NEGERI TEKUNG"},"geometry":{"type":"Point","coordinates":[113.2526203,-8.1582365]}},{"type":"Feature","properties":{"lat":-8.0359579,"long":113.2567775,"name":"SMK NEGERI KLAKAH"},"geometry":{"type":"Point","coordinates":[113.2567775,-8.0359579]}},{"type":"Feature","properties":{"lat":-8.225976,"long":113.1292003,"name":"SMK NEGERI 1 PASIRIAN"},"geometry":{"type":"Point","coordinates":[113.1292003,-8.225976]}},{"type":"Feature","properties":{"lat":-8.2259745,"long":113.0963692,"name":"SMK NEGERI TEMPEH"},"geometry":{"type":"Point","coordinates":[113.0963692,-8.2259745]}},{"type":"Feature","properties":{"lat":-8.29481,"long":112.9513413,"name":"SMK NEGERI TEMPURSARI"},"geometry":{"type":"Point","coordinates":[112.9513413,-8.29481]}},{"type":"Feature","properties":{"lat":-8.1307076,"long":113.1408849,"name":"SMK NEGERI SENDURO"},"geometry":{"type":"Point","coordinates":[113.1408849,-8.1307076]}},{"type":"Feature","properties":{"lat":-8.1887333,"long":113.3057435,"name":"SMK NEGERI ROWOKANGKUNG"},"geometry":{"type":"Point","coordinates":[113.3057435,-8.1887333]}},{"type":"Feature","properties":{"lat":-7.9293904,"long":113.8154368,"name":"SMK NEGERI 3 BONDOWOSO"},"geometry":{"type":"Point","coordinates":[113.8154368,-7.9293904]}},{"type":"Feature","properties":{"lat":-7.9176562,"long":113.8364545,"name":"SMK NEGERI 1 BONDOWOSO"},"geometry":{"type":"Point","coordinates":[113.8364545,-7.9176562]}},{"type":"Feature","properties":{"lat":-7.9200209,"long":113.8160178,"name":"SMK NEGERI 2 BONDOWOSO"},"geometry":{"type":"Point","coordinates":[113.8160178,-7.9200209]}},{"type":"Feature","properties":{"lat":-7.9908756,"long":113.919542,"name":"SMK NEGERI TLOGOSARI"},"geometry":{"type":"Point","coordinates":[113.919542,-7.9908756]}},{"type":"Feature","properties":{"lat":-7.9908697,"long":113.8516895,"name":"SMK NEGERI 1 MAESAN"},"geometry":{"type":"Point","coordinates":[113.8516895,-7.9908697]}},{"type":"Feature","properties":{"lat":-7.85977,"long":113.7457313,"name":"SMK NEGERI 1 PAKEM"},"geometry":{"type":"Point","coordinates":[113.7457313,-7.85977]}},{"type":"Feature","properties":{"lat":-7.8034784,"long":113.9768574,"name":"SMK NEGERI 1 PRAJEKAN"},"geometry":{"type":"Point","coordinates":[113.9768574,-7.8034784]}},{"type":"Feature","properties":{"lat":-8.0268469,"long":113.7921182,"name":"SMK NEGERI 1 TAMANAN"},"geometry":{"type":"Point","coordinates":[113.7921182,-8.0268469]}},{"type":"Feature","properties":{"lat":-7.82629,"long":113.7582513,"name":"SMK NEGERI 1 WRINGIN"},"geometry":{"type":"Point","coordinates":[113.7582513,-7.82629]}},{"type":"Feature","properties":{"lat":-7.7810346,"long":114.0351345,"name":"SMK NEGERI 1 CERMEE"},"geometry":{"type":"Point","coordinates":[114.0351345,-7.7810346]}},{"type":"Feature","properties":{"lat":-7.9654281,"long":113.9746134,"name":"SMK NEGERI SBR WRINGIN"},"geometry":{"type":"Point","coordinates":[113.9746134,-7.9654281]}},{"type":"Feature","properties":{"lat":-7.8777736,"long":113.9043223,"name":"SMK NEGERI 1 TAPEN"},"geometry":{"type":"Point","coordinates":[113.9043223,-7.8777736]}},{"type":"Feature","properties":{"lat":-7.8610453,"long":113.9133364,"name":"SMK NEGERI 1 KLABANG"},"geometry":{"type":"Point","coordinates":[113.9133364,-7.8610453]}},{"type":"Feature","properties":{"lat":-7.9827938,"long":113.791441,"name":"SMK NEGERI 1 GRUJUGAN"},"geometry":{"type":"Point","coordinates":[113.791441,-7.9827938]}},{"type":"Feature","properties":{"lat":-7.9764683,"long":113.8840218,"name":"SMK NEGERI 1 PUJER"},"geometry":{"type":"Point","coordinates":[113.8840218,-7.9764683]}},{"type":"Feature","properties":{"lat":-7.8881687,"long":113.825699,"name":"SMK PP NEGERI 1 TEGALAMPEL"},"geometry":{"type":"Point","coordinates":[113.825699,-7.8881687]}},{"type":"Feature","properties":{"lat":-7.962334,"long":113.7969053,"name":"SMK NEGERI 4 BONDOWOSO"},"geometry":{"type":"Point","coordinates":[113.7969053,-7.962334]}},{"type":"Feature","properties":{"lat":-8.0064866,"long":114.145549,"name":"SMK NEGERI 1 SEMPOL"},"geometry":{"type":"Point","coordinates":[114.145549,-8.0064866]}},{"type":"Feature","properties":{"lat":-7.7043919,"long":114.020277,"name":"SMK NEGERI 1 PANJI SITUBONDO"},"geometry":{"type":"Point","coordinates":[114.020277,-7.7043919]}},{"type":"Feature","properties":{"lat":-7.7342201,"long":113.7044263,"name":"SMK NEGERI 1 SUBOH"},"geometry":{"type":"Point","coordinates":[113.7044263,-7.7342201]}},{"type":"Feature","properties":{"lat":-7.7225031,"long":113.9351769,"name":"SMK NEGERI 1 KENDIT"},"geometry":{"type":"Point","coordinates":[113.9351769,-7.7225031]}},{"type":"Feature","properties":{"lat":-7.7315288,"long":114.0073562,"name":"SMK NEGERI 1 SITUBONDO"},"geometry":{"type":"Point","coordinates":[114.0073562,-7.7315288]}},{"type":"Feature","properties":{"lat":-7.6905302,"long":114.0080452,"name":"SMK NEGERI 2 SITUBONDO"},"geometry":{"type":"Point","coordinates":[114.0080452,-7.6905302]}},{"type":"Feature","properties":{"lat":-7.7578328,"long":114.2807875,"name":"SMK NEGERI 1 BANYUPUTIH"},"geometry":{"type":"Point","coordinates":[114.2807875,-7.7578328]}},{"type":"Feature","properties":{"lat":-8.1519958,"long":113.7066828,"name":"SMK NEGERI 1 JEMBER"},"geometry":{"type":"Point","coordinates":[113.7066828,-8.1519958]}},{"type":"Feature","properties":{"lat":-8.153827,"long":113.7242373,"name":"SMK NEGERI 2 JEMBER"},"geometry":{"type":"Point","coordinates":[113.7242373,-8.153827]}},{"type":"Feature","properties":{"lat":-8.1703468,"long":113.6992411,"name":"SMK NEGERI 4 JEMBER"},"geometry":{"type":"Point","coordinates":[113.6992411,-8.1703468]}},{"type":"Feature","properties":{"lat":-8.1519301,"long":113.6999935,"name":"SMK NEGERI 3 JEMBER"},"geometry":{"type":"Point","coordinates":[113.6999935,-8.1519301]}},{"type":"Feature","properties":{"lat":-8.1971765,"long":113.634953,"name":"SMK NEGERI 5  JEMBER"},"geometry":{"type":"Point","coordinates":[113.634953,-8.1971765]}},{"type":"Feature","properties":{"lat":-8.154856,"long":113.433285,"name":"SMK NEGERI 6 JEMBER"},"geometry":{"type":"Point","coordinates":[113.433285,-8.154856]}},{"type":"Feature","properties":{"lat":-8.1124975,"long":113.3699454,"name":"SMK NEGERI 7 JEMBER"},"geometry":{"type":"Point","coordinates":[113.3699454,-8.1124975]}},{"type":"Feature","properties":{"lat":-8.21281,"long":113.4570179,"name":"SMK NEGERI 8 JEMBER"},"geometry":{"type":"Point","coordinates":[113.4570179,-8.21281]}},{"type":"Feature","properties":{"lat":-8.2155967,"long":114.3422309,"name":"SMK NEGERI 1 GLAGAH"},"geometry":{"type":"Point","coordinates":[114.3422309,-8.2155967]}},{"type":"Feature","properties":{"lat":-8.2953609,"long":113.9862603,"name":"SMK NEGERI 1 KALIBARU"},"geometry":{"type":"Point","coordinates":[113.9862603,-8.2953609]}},{"type":"Feature","properties":{"lat":-8.4812712,"long":114.3319615,"name":"SMK NEGERI DARUL ULUM"},"geometry":{"type":"Point","coordinates":[114.3319615,-8.4812712]}},{"type":"Feature","properties":{"lat":-8.212343,"long":114.3486873,"name":"SMK NEGERI 1 BANYUWANGI"},"geometry":{"type":"Point","coordinates":[114.3486873,-8.212343]}},{"type":"Feature","properties":{"lat":-8.2957882,"long":114.243208,"name":"SMK NEGERI IHYA ULUMIDIN"},"geometry":{"type":"Point","coordinates":[114.243208,-8.2957882]}},{"type":"Feature","properties":{"lat":-7.9890678,"long":114.3929827,"name":"SMK NEGERI WONGSOREJO"},"geometry":{"type":"Point","coordinates":[114.3929827,-7.9890678]}},{"type":"Feature","properties":{"lat":-8.4222245,"long":114.1540569,"name":"SMK NEGERI 1 TEGALSARI"},"geometry":{"type":"Point","coordinates":[114.1540569,-8.4222245]}},{"type":"Feature","properties":{"lat":-8.1714667,"long":114.3624355,"name":"SMK NEGERI 1 KALIPURO"},"geometry":{"type":"Point","coordinates":[114.3624355,-8.1714667]}},{"type":"Feature","properties":{"lat":-7.1580637,"long":113.4717645,"name":"SMK NEGERI 3 PAMEKASAN"},"geometry":{"type":"Point","coordinates":[113.4717645,-7.1580637]}},{"type":"Feature","properties":{"lat":-7.1580634,"long":113.4564435,"name":"SMK NEGERI 1 PAMEKASAN"},"geometry":{"type":"Point","coordinates":[113.4564435,-7.1580634]}},{"type":"Feature","properties":{"lat":-7.1508079,"long":113.4639041,"name":"SMK NEGERI 2 PAMEKASAN"},"geometry":{"type":"Point","coordinates":[113.4639041,-7.1508079]}},{"type":"Feature","properties":{"lat":-7.03546,"long":113.5434673,"name":"SMK NEGERI 1 PAKONG"},"geometry":{"type":"Point","coordinates":[113.5434673,-7.03546]}},{"type":"Feature","properties":{"lat":-6.9030547,"long":113.5669414,"name":"SMK NEGERI 1 PASEAN"},"geometry":{"type":"Point","coordinates":[113.5669414,-6.9030547]}},{"type":"Feature","properties":{"lat":-7.1331409,"long":113.4223496,"name":"SMK NEGERI 1 PROPPO"},"geometry":{"type":"Point","coordinates":[113.4223496,-7.1331409]}},{"type":"Feature","properties":{"lat":-7.2201556,"long":113.4379068,"name":"SMK NEGERI 1 TLANAKAN"},"geometry":{"type":"Point","coordinates":[113.4379068,-7.2201556]}},{"type":"Feature","properties":{"lat":-7.18967,"long":113.25551,"name":"SMK NEGERI 1 SAMPANG"},"geometry":{"type":"Point","coordinates":[113.25551,-7.18967]}},{"type":"Feature","properties":{"lat":-7.0594361,"long":113.1679314,"name":"SMK NEGERI 1 TAMBELANGAN"},"geometry":{"type":"Point","coordinates":[113.1679314,-7.0594361]}},{"type":"Feature","properties":{"lat":-6.99968,"long":113.2922513,"name":"SMK NEGERI 1 ROBATAL"},"geometry":{"type":"Point","coordinates":[113.2922513,-6.99968]}},{"type":"Feature","properties":{"lat":-7.2015655,"long":113.239394,"name":"SMK NEGERI 2 SAMPANG"},"geometry":{"type":"Point","coordinates":[113.239394,-7.2015655]}},{"type":"Feature","properties":{"lat":-7.3083815,"long":113.2017185,"name":"SMK NEGERI 3 SAMPANG"},"geometry":{"type":"Point","coordinates":[113.2017185,-7.3083815]}},{"type":"Feature","properties":{"lat":-7.1266567,"long":113.138985,"name":"SMK NEGERI 1 JRENGIK"},"geometry":{"type":"Point","coordinates":[113.138985,-7.1266567]}},{"type":"Feature","properties":{"lat":-7.1451575,"long":113.3078116,"name":"SMK NEGERI 1 OMBEN"},"geometry":{"type":"Point","coordinates":[113.3078116,-7.1451575]}},{"type":"Feature","properties":{"lat":-7.0355111,"long":113.8592397,"name":"SMK NEGERI 1 SUMENEP"},"geometry":{"type":"Point","coordinates":[113.8592397,-7.0355111]}},{"type":"Feature","properties":{"lat":-7.033686,"long":113.9055633,"name":"SMK NEGERI 1 KALIANGET"},"geometry":{"type":"Point","coordinates":[113.9055633,-7.033686]},"id":277},{"type":"Feature","properties":{"lat":-7.0475704,"long":112.752023,"name":"SMK NEGERI 2 BANGKALAN"},"geometry":{"type":"Point","coordinates":[112.752023,-7.0475704]}},{"type":"Feature","properties":{"lat":-7.0383187,"long":112.7278959,"name":"SMK NEGERI 1 BANGKALAN"},"geometry":{"type":"Point","coordinates":[112.7278959,-7.0383187]}},{"type":"Feature","properties":{"lat":-6.9439586,"long":112.8292281,"name":"SMK NEGERI 1 AROSBAYA"},"geometry":{"type":"Point","coordinates":[112.8292281,-6.9439586]}},{"type":"Feature","properties":{"lat":-7.1313431,"long":112.7719542,"name":"SMK NEGERI 1 LABANG"},"geometry":{"type":"Point","coordinates":[112.7719542,-7.1313431]}},{"type":"Feature","properties":{"lat":-6.896756,"long":112.9584643,"name":"SMK NEGERI 1 SEPULU"},"geometry":{"type":"Point","coordinates":[112.9584643,-6.896756]}},{"type":"Feature","properties":{"lat":-7.158747,"long":113.0509303,"name":"SMK NEGERI 1 BLEGA"},"geometry":{"type":"Point","coordinates":[113.0509303,-7.158747]}},{"type":"Feature","properties":{"lat":-7.12263,"long":112.8799713,"name":"SMK NEGERI 1 KWANYAR"},"geometry":{"type":"Point","coordinates":[112.8799713,-7.12263]}},{"type":"Feature","properties":{"lat":-7.1255697,"long":112.712089,"name":"SMK NEGERI 1 KAMAL"},"geometry":{"type":"Point","coordinates":[112.712089,-7.1255697]}},{"type":"Feature","properties":{"lat":-7.0419564,"long":112.716728,"name":"SMK NEGERI 3 BANGKALAN"},"geometry":{"type":"Point","coordinates":[112.716728,-7.0419564]}},{"type":"Feature","properties":{"lat":-6.89049,"long":113.0563323,"name":"SMK NEGERI 1 TANJUNGBUMI"},"geometry":{"type":"Point","coordinates":[113.0563323,-6.89049]}}]}